{
  "type": "FeatureCollection",
  "name": "Incidentet Aktive — Kosovë",
  "crs": { "type": "name", "properties": { "name": "urn:ogc:def:crs:OGC:1.3:CRS84" } },
  "features": [
    { "type":"Feature", "properties":{ "id":"INC001", "lloji":"Aksident masiv rrugor",           "ashpersia":"high", "statusi":"aktiv",       "sherbimi":"policia",    "koha":"09:47", "adresa":"Rr. Ismet Asllani, Rufc i Vjetër",         "pershkrimi":"Kamion përplaset me autobus, 6 të lënduar, bllokadë totale, rrjedhje karburanti" }, "geometry":{ "type":"Point", "coordinates":[21.0925, 42.5218] } },
    { "type":"Feature", "properties":{ "id":"INC002", "lloji":"Zjarr banesë shumëkatëshe",       "ashpersia":"high", "statusi":"aktiv",       "sherbimi":"zjarrfikes", "koha":"09:32", "adresa":"Rr. Butrinti, Prishtinë",                   "pershkrimi":"Zjarr në katin e 3-të, tymë i dendur, 2 persona të bllokuar brenda" }, "geometry":{ "type":"Point", "coordinates":[21.1742, 42.6718] } },
    { "type":"Feature", "properties":{ "id":"INC003", "lloji":"Sulm me armë zjarri",             "ashpersia":"high", "statusi":"aktiv",       "sherbimi":"policia",    "koha":"09:18", "adresa":"Rr. Isa Boletini, Mitrovicë",               "pershkrimi":"Shkëmbim zjarri, 1 i plagosur rëndë, zona e izoluar, kërkohet njësi TAK" }, "geometry":{ "type":"Point", "coordinates":[20.8660, 42.8918] } },
    { "type":"Feature", "properties":{ "id":"INC004", "lloji":"Zjarr industrial",                "ashpersia":"high", "statusi":"aktiv",       "sherbimi":"zjarrfikes", "koha":"09:05", "adresa":"Rr. Martirët Aliu nr.128, Milloshevë",       "pershkrimi":"Zjarr në magazinë karburanti pranë turbinës, rrezik shpërthimi, zonë evakuimi 500m" }, "geometry":{ "type":"Point", "coordinates":[21.0712, 42.7092] } },
    { "type":"Feature", "properties":{ "id":"INC005", "lloji":"Aksident autobusi shkollor",      "ashpersia":"high", "statusi":"aktiv",       "sherbimi":"policia",    "koha":"08:55", "adresa":"Rr. Momčila Sekulića nr.11, Graçanicë",      "pershkrimi":"Autobusi del nga rruga, 18 nxënës të lënduar, 2 rëndë, nevojiten shumë ambulanca" }, "geometry":{ "type":"Point", "coordinates":[21.1968, 42.5998] } },
    { "type":"Feature", "properties":{ "id":"INC006", "lloji":"Rrjedhje kimike",                 "ashpersia":"high", "statusi":"aktiv",       "sherbimi":"zjarrfikes", "koha":"08:43", "adresa":"Rr. Rozafa nr.1, Fushë Kosovë",              "pershkrimi":"Rrjedhje acidi industrial, 3 punëtorë me djegie kimike, evakuim i zonës 300m" }, "geometry":{ "type":"Point", "coordinates":[21.0948, 42.6375] } },
    { "type":"Feature", "properties":{ "id":"INC007", "lloji":"Arrest kardiak",                  "ashpersia":"high", "statusi":"ne_trajtim",  "sherbimi":"ambulance",  "koha":"08:31", "adresa":"Rr. Ibrahim Rugova, Gjilan",                 "pershkrimi":"Mashkull 58 vjeç, arrest kardiak, i pa vetëdijshëm, RCP aktive nga ekipi mjekësor" }, "geometry":{ "type":"Point", "coordinates":[21.4680, 42.4618] } },
    { "type":"Feature", "properties":{ "id":"INC008", "lloji":"Përplasje zinxhirore (5 vetura)", "ashpersia":"high", "statusi":"aktiv",       "sherbimi":"policia",    "koha":"08:20", "adresa":"Rr. 14 Prilli, Komuna e Drenasit",           "pershkrimi":"5 automjete të bllokuara, 1 veturë ka marrë flakë, 4 të lënduar, 1 kritik" }, "geometry":{ "type":"Point", "coordinates":[20.8905, 42.6502] } },
    { "type":"Feature", "properties":{ "id":"INC009", "lloji":"Aksident rrugor — 2 vetura",      "ashpersia":"med",  "statusi":"aktiv",       "sherbimi":"policia",    "koha":"08:08", "adresa":"Rr. Deshtica, Romajë",                       "pershkrimi":"Përplasje ballore, 2 të lënduar mesatarisht, rruga e ngushtë e bllokuar" }, "geometry":{ "type":"Point", "coordinates":[20.5855, 42.2958] } },
    { "type":"Feature", "properties":{ "id":"INC010", "lloji":"Zjarr automjeti në lëvizje",      "ashpersia":"med",  "statusi":"aktiv",       "sherbimi":"zjarrfikes", "koha":"07:55", "adresa":"Rr. Rilindja Kombëtare nr.228, Gllanicë",    "pershkrimi":"Veturë kap flakë gjatë lëvizjes, shoferi evakuua i sigurt, rrezik përhapjeje" }, "geometry":{ "type":"Point", "coordinates":[21.0682, 42.5502] } },
    { "type":"Feature", "properties":{ "id":"INC011", "lloji":"Grabitje me dhunë",               "ashpersia":"med",  "statusi":"aktiv",       "sherbimi":"policia",    "koha":"07:42", "adresa":"Rr. Shpetim Bojku, Pejë",                    "pershkrimi":"2 persona me kapuç grabisin arkat e blerjes, arratisje me mjet motorik të vjedhur" }, "geometry":{ "type":"Point", "coordinates":[20.2960, 42.6628] } },
    { "type":"Feature", "properties":{ "id":"INC012", "lloji":"Dhunë familjare me lëndime",      "ashpersia":"med",  "statusi":"aktiv",       "sherbimi":"policia",    "koha":"07:30", "adresa":"Rr. Emin Duraku nr.31, Ferizaj",             "pershkrimi":"Grua 34 vjeçe me lëndime në fytyrë dhe dorë, kërkohet ambulancë dhe ndërhyrje policore" }, "geometry":{ "type":"Point", "coordinates":[21.1528, 42.3712] } },
    { "type":"Feature", "properties":{ "id":"INC013", "lloji":"Zjarr pyjor",                     "ashpersia":"med",  "statusi":"aktiv",       "sherbimi":"zjarrfikes", "koha":"07:18", "adresa":"Rr. Rezistenca, Zym",                        "pershkrimi":"Zjarr pyjor rreth 4 ha, erë e fortë jugore, përhapje e shpejtë, vështirësi aksesi" }, "geometry":{ "type":"Point", "coordinates":[20.6605, 42.1082] } },
    { "type":"Feature", "properties":{ "id":"INC014", "lloji":"Lëndim i rëndë në kantier",       "ashpersia":"med",  "statusi":"ne_trajtim",  "sherbimi":"ambulance",  "koha":"06:55", "adresa":"Rr. Dukagjin Vula, Matiqan",                 "pershkrimi":"Punëtor bie nga skeleti, dyshohet frakturë vertebrore, imobilizim i nevojshëm" }, "geometry":{ "type":"Point", "coordinates":[21.1832, 42.6532] } },
    { "type":"Feature", "properties":{ "id":"INC015", "lloji":"Aksident motoçikletë",            "ashpersia":"med",  "statusi":"aktiv",       "sherbimi":"policia",    "koha":"06:40", "adresa":"Rr. Ahmet Shala, Barilevë",                  "pershkrimi":"Motoçikleta del nga rruga në kthesë, shoferi i lënduar me traumë koke" }, "geometry":{ "type":"Point", "coordinates":[21.1108, 42.7538] } },
    { "type":"Feature", "properties":{ "id":"INC016", "lloji":"Trazirë publike me dhunë",        "ashpersia":"med",  "statusi":"aktiv",       "sherbimi":"policia",    "koha":"06:25", "adresa":"Rr. Ismail Qemajli nr.66, Vushtrri",         "pershkrimi":"Konflikt mes dy grupesh rreth 20 persona, dhunë fizike, 3 të lënduar lehtë" }, "geometry":{ "type":"Point", "coordinates":[20.9672, 42.8242] } },
    { "type":"Feature", "properties":{ "id":"INC017", "lloji":"Rrjedhje gazi LPG — banesë",      "ashpersia":"med",  "statusi":"aktiv",       "sherbimi":"zjarrfikes", "koha":"06:10", "adresa":"Lagja Jeni Mahalla, Prizren",                 "pershkrimi":"Erë e fortë gazi LPG, ndërtesa dykatëshe, evakuim i banorëve, ndalim rrymës" }, "geometry":{ "type":"Point", "coordinates":[20.7362, 42.2128] } },
    { "type":"Feature", "properties":{ "id":"INC018", "lloji":"Aksidenti i këmbësorit",          "ashpersia":"med",  "statusi":"ne_trajtim",  "sherbimi":"policia",    "koha":"05:58", "adresa":"Rr. Mbretëresha Teutë nr.122/2, Pejë",       "pershkrimi":"Veturë godet këmbësorin në kapërcyes, grua 45 vjeçe, frakturë e mundshme e pelvisit" }, "geometry":{ "type":"Point", "coordinates":[20.2938, 42.6612] } },
    { "type":"Feature", "properties":{ "id":"INC019", "lloji":"Zjarr banesë dykatëshe",          "ashpersia":"med",  "statusi":"ne_trajtim",  "sherbimi":"zjarrfikes", "koha":"05:45", "adresa":"Rr. Muslim Mulliqi, Gjakovë",                 "pershkrimi":"Zjarr nga shkëndija elektrike, kati i parë i djegur, 1 person me djegie të lehta" }, "geometry":{ "type":"Point", "coordinates":[20.4408, 42.3762] } },
    { "type":"Feature", "properties":{ "id":"INC020", "lloji":"Aksident i lehtë rrugor",         "ashpersia":"low",  "statusi":"aktiv",       "sherbimi":"policia",    "koha":"05:30", "adresa":"Rr. Muhaxherët e Toplicës, Kçiq i Madh",     "pershkrimi":"2 vetura përplasje të lehta nga anash, pa të lënduar, trafik i ngadaltë" }, "geometry":{ "type":"Point", "coordinates":[20.9198, 42.8572] } },
    { "type":"Feature", "properties":{ "id":"INC021", "lloji":"Lëndim sportiv",                  "ashpersia":"low",  "statusi":"ne_trajtim",  "sherbimi":"ambulance",  "koha":"05:12", "adresa":"Rr. Jusuf Gërvalla, Prishtinë",               "pershkrimi":"Sportist 22 vjeç, frakturë e mundshme e kyçit të këmbës gjatë stërvitjes" }, "geometry":{ "type":"Point", "coordinates":[21.1518, 42.6492] } },
    { "type":"Feature", "properties":{ "id":"INC022", "lloji":"Bllokadë rruge — aksident i lehtë","ashpersia":"low", "statusi":"zgjidhur",   "sherbimi":"policia",    "koha":"04:55", "adresa":"Rr. Iliria, Kamenicë",                       "pershkrimi":"Veturë del nga rruga, rruga e bllokuar 45 min, trafik i ridrejtuar, pa të lënduar" }, "geometry":{ "type":"Point", "coordinates":[21.5795, 42.5822] } },
    { "type":"Feature", "properties":{ "id":"INC023", "lloji":"Zjarr i vogël automjeti",         "ashpersia":"low",  "statusi":"zgjidhur",   "sherbimi":"zjarrfikes", "koha":"04:40", "adresa":"Rr. Edit Durham, Prizren",                    "pershkrimi":"Motorçikleta merr flakë në parking (defekt elektrik), shuar shpejt" }, "geometry":{ "type":"Point", "coordinates":[20.7398, 42.2172] } },
    { "type":"Feature", "properties":{ "id":"INC024", "lloji":"Rënie nga lartësia — lëndim i lehtë","ashpersia":"low","statusi":"ne_trajtim","sherbimi":"ambulance",  "koha":"04:22", "adresa":"Rr. Aleksandër Stipçeviq, Prishtinë",         "pershkrimi":"Fëmijë 9 vjeç bie nga pajisja e lojërave, gju i mavijosur, pa frakturë" }, "geometry":{ "type":"Point", "coordinates":[21.1628, 42.6592] } },
    { "type":"Feature", "properties":{ "id":"INC025", "lloji":"Kapje e personave kufiri",        "ashpersia":"low",  "statusi":"zgjidhur",   "sherbimi":"policia",    "koha":"04:05", "adresa":"Rr. Gryka e Llapit nr.1218, Podujevë",       "pershkrimi":"3 persona kapën duke kaluar ilegalisht kufirin, arrestuar, dërguar në qendër mbajtjeje" }, "geometry":{ "type":"Point", "coordinates":[21.2428, 42.9372] } }
  ]
}
