{
  "type": "FeatureCollection",
  "name": "Stacionet Policore — Kosovë",
  "crs": { "type": "name", "properties": { "name": "urn:ogc:def:crs:OGC:1.3:CRS84" } },
  "features": [
    { "type":"Feature", "properties":{ "id":"P01", "emri":"Stacioni Policor Nr. 1 — Prishtinë",       "adresa":"Rr. Luan Haradinaj, Prishtinë",              "tel":"192", "kapaciteti":40, "statusi":"aktiv", "sherbimi":"policia" }, "geometry":{ "type":"Point", "coordinates":[21.1593137, 42.6619664] } },
    { "type":"Feature", "properties":{ "id":"P02", "emri":"Stacioni Policor Nr. 2 — Prishtinë",       "adresa":"Rr. Qamile Jaka, Prishtinë",                 "tel":"192", "kapaciteti":35, "statusi":"aktiv", "sherbimi":"policia" }, "geometry":{ "type":"Point", "coordinates":[21.1676112, 42.659122] } },
    { "type":"Feature", "properties":{ "id":"P03", "emri":"Stacioni Policor Jugu — Prishtinë",        "adresa":"Rr. Jusuf Gërvalla, Prishtinë",              "tel":"192", "kapaciteti":30, "statusi":"aktiv", "sherbimi":"policia" }, "geometry":{ "type":"Point", "coordinates":[21.1553191, 42.6475235] } },
    { "type":"Feature", "properties":{ "id":"P04", "emri":"Stacioni Policor Veri — Prishtinë",        "adresa":"Rr. Toni Bler, Prishtinë",                   "tel":"192", "kapaciteti":28, "statusi":"aktiv", "sherbimi":"policia" }, "geometry":{ "type":"Point", "coordinates":[21.1509816, 42.6651432] } },
    { "type":"Feature", "properties":{ "id":"P05", "emri":"Stacioni Policor — Pejë",                  "adresa":"Rr. Mbretëresha Teutë, Pejë",                "tel":"192", "kapaciteti":30, "statusi":"aktiv", "sherbimi":"policia" }, "geometry":{ "type":"Point", "coordinates":[20.2963547, 42.6623983] } },
    { "type":"Feature", "properties":{ "id":"P06", "emri":"Policia e Trafikut — Pejë",                "adresa":"Rr. Ndue Bytyqi, Pejë",                      "tel":"192", "kapaciteti":15, "statusi":"aktiv", "sherbimi":"policia" }, "geometry":{ "type":"Point", "coordinates":[20.298666, 42.664382] } },
    { "type":"Feature", "properties":{ "id":"P07", "emri":"Stacioni Policor Drenas",                  "adresa":"Rr. Fehmi dhe Xhevë Lladrovci, Drenas",      "tel":"192", "kapaciteti":18, "statusi":"aktiv", "sherbimi":"policia" }, "geometry":{ "type":"Point", "coordinates":[20.8967347, 42.6252097] } },
    { "type":"Feature", "properties":{ "id":"P08", "emri":"Stacioni Policor i Fushë Kosovës",         "adresa":"Rr. Hashim Hajdini, Fushë Kosovë",           "tel":"192", "kapaciteti":20, "statusi":"aktiv", "sherbimi":"policia" }, "geometry":{ "type":"Point", "coordinates":[21.0850619, 42.6346962] } },
    { "type":"Feature", "properties":{ "id":"P09", "emri":"Stacioni Policor Klinë",                   "adresa":"Rr. Sadik Rama, Përlinë",                    "tel":"192", "kapaciteti":18, "statusi":"aktiv", "sherbimi":"policia" }, "geometry":{ "type":"Point", "coordinates":[20.5758724, 42.6094587] } },
    { "type":"Feature", "properties":{ "id":"P10", "emri":"Nënstacioni Policor Ratkoc",               "adresa":"Rr. Safet Latifi, Ratkoc",                   "tel":"192", "kapaciteti":8,  "statusi":"aktiv", "sherbimi":"policia" }, "geometry":{ "type":"Point", "coordinates":[20.5381686, 42.4112346] } },
    { "type":"Feature", "properties":{ "id":"P11", "emri":"Stacioni Policor — Prizren Qendër",        "adresa":"Rr. Viliam Vokeri, Prizren",                 "tel":"192", "kapaciteti":35, "statusi":"aktiv", "sherbimi":"policia" }, "geometry":{ "type":"Point", "coordinates":[20.7302141, 42.2103402] } },
    { "type":"Feature", "properties":{ "id":"P12", "emri":"Stacioni Policor Prizren (Veri)",          "adresa":"Rr. Kalaja e Shkupit, Lubizhdë",             "tel":"192", "kapaciteti":25, "statusi":"aktiv", "sherbimi":"policia" }, "geometry":{ "type":"Point", "coordinates":[20.7698957, 42.2489911] } },
    { "type":"Feature", "properties":{ "id":"P13", "emri":"Stacioni Policor Rahovec",                 "adresa":"Rr. Sheh Mihedini nr.158, Rahovec",          "tel":"192", "kapaciteti":15, "statusi":"aktiv", "sherbimi":"policia" }, "geometry":{ "type":"Point", "coordinates":[20.6576926, 42.3969835] } },
    { "type":"Feature", "properties":{ "id":"P14", "emri":"Stacioni Policor Gjakovë Qendër",          "adresa":"Rr. Skënderbeu nr.237, Gjakovë",             "tel":"192", "kapaciteti":28, "statusi":"aktiv", "sherbimi":"policia" }, "geometry":{ "type":"Point", "coordinates":[20.441064, 42.37601] } },
    { "type":"Feature", "properties":{ "id":"P15", "emri":"Stacioni Policor Skenderaj",               "adresa":"Rr. 28 Nëntori nr.166, Skënderaj",           "tel":"192", "kapaciteti":18, "statusi":"aktiv", "sherbimi":"policia" }, "geometry":{ "type":"Point", "coordinates":[20.7888974, 42.7443433] } },
    { "type":"Feature", "properties":{ "id":"P16", "emri":"Stacioni Policor Leposaviq",               "adresa":"Rr. Vukašin Vukašinović, Leposaviq",         "tel":"192", "kapaciteti":12, "statusi":"aktiv", "sherbimi":"policia" }, "geometry":{ "type":"Point", "coordinates":[20.800083, 43.1049251] } },
    { "type":"Feature", "properties":{ "id":"P17", "emri":"Nënstacioni Policor Zheger",               "adresa":"Rr. Milazim Idrizi, Zhegër",                 "tel":"192", "kapaciteti":8,  "statusi":"aktiv", "sherbimi":"policia" }, "geometry":{ "type":"Point", "coordinates":[21.485301, 42.3734364] } },
    { "type":"Feature", "properties":{ "id":"P18", "emri":"Stacioni Policor Junik",                   "adresa":"Rr. Shkelzen Gacaferi, Junik",               "tel":"192", "kapaciteti":10, "statusi":"aktiv", "sherbimi":"policia" }, "geometry":{ "type":"Point", "coordinates":[20.2758209, 42.4763662] } },
    { "type":"Feature", "properties":{ "id":"P19", "emri":"Stacioni Policor Kufitar — Çakor",         "adresa":"Rr. Rozhaja, Radac",                         "tel":"192", "kapaciteti":15, "statusi":"aktiv", "sherbimi":"policia" }, "geometry":{ "type":"Point", "coordinates":[20.2886116, 42.7587361] } },
    { "type":"Feature", "properties":{ "id":"P20", "emri":"Stacioni Policor Istog",                   "adresa":"Rr. Fadil Ferati, Istog",                    "tel":"192", "kapaciteti":15, "statusi":"aktiv", "sherbimi":"policia" }, "geometry":{ "type":"Point", "coordinates":[20.4902125, 42.7815665] } },
    { "type":"Feature", "properties":{ "id":"P21", "emri":"Stacioni Policor Dragash",                 "adresa":"Rr. Hysein Kutlu, Dragash",                  "tel":"192", "kapaciteti":14, "statusi":"aktiv", "sherbimi":"policia" }, "geometry":{ "type":"Point", "coordinates":[20.6531816, 42.0608567] } },
    { "type":"Feature", "properties":{ "id":"P22", "emri":"Stacioni Policor Shtërpcë",                "adresa":"Rr. Devet Jugovića, Shtërpcë",               "tel":"192", "kapaciteti":10, "statusi":"aktiv", "sherbimi":"policia" }, "geometry":{ "type":"Point", "coordinates":[21.0232563, 42.2377602] } },
    { "type":"Feature", "properties":{ "id":"P23", "emri":"Stacioni Policor Suharekë",                "adresa":"Rr. Brigada 123 nr.171, Suharekë",           "tel":"192", "kapaciteti":16, "statusi":"aktiv", "sherbimi":"policia" }, "geometry":{ "type":"Point", "coordinates":[20.8320318, 42.3621704] } },
    { "type":"Feature", "properties":{ "id":"P24", "emri":"Stacioni Policor Gjilan",                  "adresa":"Rr. Mulla Idrizi, Gjilan",                   "tel":"192", "kapaciteti":32, "statusi":"aktiv", "sherbimi":"policia" }, "geometry":{ "type":"Point", "coordinates":[21.4702195, 42.4628422] } },
    { "type":"Feature", "properties":{ "id":"P25", "emri":"Vendkalimi Kufitar KAPI",                  "adresa":"Rr. R-216, Komuna e Kamenicës",              "tel":"192", "kapaciteti":18, "statusi":"aktiv", "sherbimi":"policia" }, "geometry":{ "type":"Point", "coordinates":[21.5564959, 42.7352546] } },
    { "type":"Feature", "properties":{ "id":"P26", "emri":"Stacioni Policor Kamenicë",                "adresa":"Rr. Sylë Zarbinca, Kamenicë",                "tel":"192", "kapaciteti":20, "statusi":"aktiv", "sherbimi":"policia" }, "geometry":{ "type":"Point", "coordinates":[21.577466, 42.579512] } },
    { "type":"Feature", "properties":{ "id":"P27", "emri":"Stacioni Policor Obiliq",                  "adresa":"Rr. Adem Jashari, Obiliq",                   "tel":"192", "kapaciteti":14, "statusi":"aktiv", "sherbimi":"policia" }, "geometry":{ "type":"Point", "coordinates":[21.0695785, 42.6867555] } },
    { "type":"Feature", "properties":{ "id":"P28", "emri":"Stacioni Policor Vushtrri",                "adresa":"Rr. Çamëria, Vushtrri",                      "tel":"192", "kapaciteti":22, "statusi":"aktiv", "sherbimi":"policia" }, "geometry":{ "type":"Point", "coordinates":[20.9654388, 42.8251129] } },
    { "type":"Feature", "properties":{ "id":"P29", "emri":"Stacioni Policor Zveçan",                  "adresa":"Rr. Nikole Tesle, Zveçan",                   "tel":"192", "kapaciteti":10, "statusi":"aktiv", "sherbimi":"policia" }, "geometry":{ "type":"Point", "coordinates":[20.8405231, 42.9060521] } },
    { "type":"Feature", "properties":{ "id":"P30", "emri":"Stacioni Policor Orllan",                  "adresa":"Rr. Mehmet Hoxha, Orllan",                   "tel":"192", "kapaciteti":12, "statusi":"aktiv", "sherbimi":"policia" }, "geometry":{ "type":"Point", "coordinates":[21.3382474, 42.8168824] } },
    { "type":"Feature", "properties":{ "id":"P31", "emri":"Drejtoria Rajonale Kufitare — Veri",       "adresa":"Rr. Vëllezërit Bunjaku, Lluzhanë",           "tel":"192", "kapaciteti":30, "statusi":"aktiv", "sherbimi":"policia" }, "geometry":{ "type":"Point", "coordinates":[21.1678775, 42.823476] } },
    { "type":"Feature", "properties":{ "id":"P32", "emri":"Stacioni Policor Podujevë",                "adresa":"Rr. Nuhi Gashi, Podujevë",                   "tel":"192", "kapaciteti":22, "statusi":"aktiv", "sherbimi":"policia" }, "geometry":{ "type":"Point", "coordinates":[21.1919163, 42.91163] } },
    { "type":"Feature", "properties":{ "id":"P33", "emri":"Vendkalimi Kufitar Merdarë",               "adresa":"Rr. Gryka e Llapit, Merdar",                 "tel":"192", "kapaciteti":20, "statusi":"aktiv", "sherbimi":"policia" }, "geometry":{ "type":"Point", "coordinates":[21.2427241, 42.9369978] } },
    { "type":"Feature", "properties":{ "id":"P34", "emri":"Vendkalimi Kufitar Dheu i Bardhë",         "adresa":"Rr. Bujanoc, Kormnjan i Poshtëm",            "tel":"192", "kapaciteti":16, "statusi":"aktiv", "sherbimi":"policia" }, "geometry":{ "type":"Point", "coordinates":[21.6416003, 42.5062746] } },
    { "type":"Feature", "properties":{ "id":"P35", "emri":"Stacioni Policor Muçivërc",                "adresa":"Rr. Veteranët e UÇK-së nr.17, Muçivërc",     "tel":"192", "kapaciteti":10, "statusi":"aktiv", "sherbimi":"policia" }, "geometry":{ "type":"Point", "coordinates":[21.65841, 42.5597547] } },
    { "type":"Feature", "properties":{ "id":"P36", "emri":"Stacioni Policor-Mitrovicë",               "adresa":"Rr. Marie Shllaku, Mitrovicë",               "tel":"192", "kapaciteti":30, "statusi":"aktiv", "sherbimi":"policia" }, "geometry":{ "type":"Point", "coordinates":[20.8742914, 42.8906698] } },
    { "type":"Feature", "properties":{ "id":"P37", "emri":"Stacioni policor-Viti",                    "adresa":"Rr. Adem Jashari nr.26, Viti",               "tel":"192", "kapaciteti":16, "statusi":"aktiv", "sherbimi":"policia" }, "geometry":{ "type":"Point", "coordinates":[21.3556789, 42.3207967] } }
  ]
}
